{"offices": [{"address": "Corona: 500\nMalaria: 86 Currently: 0", "id": "aarhus","lat": 13.1859, "lng": 74.9395, "name": "Niite"},
{"address": "Dengue: 1,185\n Corona: 1.5L Currently: 648", "id": "aarhus","lat": 12.9716, "lng": 77.5946, "name": "Bangalore"},
{"address": "Corona: 2000 Malaria: 223 Currently: 0", "id": "aarhus","lat": 13.340881, "lng": 74.742142, "name": "Udupi"},
{"address": "Corona: 3000 Malaria: 250 Currently: 0", "id": "aarhus","lat": 12.9141, "lng": 74.8560, "name": "Mangalore"},
{"address": "Corona: 5000 Malaria: 100 Currently: 0", "id": "aarhus","lat": 12.2958, "lng": 76.6394, "name": "Mysore"},
{"address": "Corona: 5432 Malaria: 123 Currently: 0", "id": "aarhus","lat": 12.4244, "lng": 75.7382, "name": "Madikeri"},
{"address": "Corona: 4325 Malaria: 103 Currently: 0", "id": "aarhus","lat": 17.9104, "lng": 77.5199, "name": "Bidar"},
{"address": "Corona: 7895 Malaria: 145 Currently: 0", "id": "aarhus","lat": 17.3297, "lng": 76.8343, "name": "Kalaburgi"},
{"address": "Corona: 8000 Malaria: 234 Currently: 0", "id": "aarhus","lat": 13.3161, "lng": 75.7720, "name": "Chikamagaluru"},
{"address": "Corona: 5678 Malaria: 125 Currently: 0", "id": "aarhus","lat": 12.9442, "lng": 75.7866, "name": "Sakleshpur"},
{"address": "Corona: 6543 Malaria: 234 Currently: 0", "id": "aarhus","lat": 13.0033, "lng": 76.1004, "name": "Hasan"},
{"address": "Corona: 7890 Malaria: 145 Currently: 0", "id": "aarhus","lat": 13.9299, "lng": 75.5681, "name": "Shimoga"},
{"address": "Corona: 7896 Malaria: 88 Currently: 0", "id": "aarhus","lat": 13.3379, "lng": 77.1173, "name": "Tumkuru"},
{"address": "Corona: 8908 Malaria: 123 Currently: 0", "id": "aarhus","lat": 14.4644, "lng": 75.9218, "name": "Davangere"},
{"address": "Corona: 7896 Malaria: 150 Currently: 0", "id": "aarhus","lat": 14.2251, "lng": 76.3980, "name": "Chitradurga"},
{"address": "Corona: 8765 Malaria: 121 Currently: 0", "id": "aarhus","lat": 15.1394, "lng": 76.9214, "name": "Bellary"},
{"address": "Corona: 7896 Malaria: 134 Currently: 0", "id": "aarhus","lat": 16.2160, "lng": 77.3566, "name": "Raichur"},
{"address": "Corona: 1456 Malaria: 56 Currently: 0", "id": "aarhus","lat": 12.9887, "lng": 75.2725, "name": "Belthangadi"},
{"address": "Corona: 1678 Malaria: 45 Currently: 0", "id": "aarhus","lat": 12.9546, "lng": 75.3811, "name": "Dharmastala"},
{"address": "Corona: 2000 Malaria: 66 Currently: 0", "id": "aarhus","lat": 12.7687, "lng": 75.2071, "name": "Puttur"},
{"address": "Corona: 1456 Malaria: 36 Currently: 0", "id": "aarhus","lat": 12.9012, "lng": 75.0412, "name": "Bantwal"},
{"address": "Corona: 1789 Malaria: 67 Currently: 0", "id": "aarhus","lat": 15.3505, "lng": 76.1567, "name": "Koppala"},
{"address": "Corona: 1110 Malaria: 34 Currently: 0", "id": "aarhus","lat": 13.1223, "lng": 75.1482, "name": "Naravi"},
{"address": "Corona: 900 Malaria: 32 Currently: 0", "id": "aarhus","lat": 12.9955, "lng": 75.3289, "name": "Ujire"},
{"address": "Corona: 2345 Malaria: 27 Currently: 0", "id": "aarhus","lat": 13.1362, "lng": 78.1291, "name": "Kolar"},
{"address": "Corona: 3456 Malaria: 67 Currently: 0", "id": "aarhus","lat": 13.0688, "lng": 74.9936, "name": "Mudbidri"},
{"address": "Corona: 1768 Malaria: 78 Currently: 0", "id": "aarhus","lat": 13.2763, "lng": 75.0557, "name": "Jarkala"},
{"address": "Corona: 1876 Malaria: 75 Currently: 0", "id": "aarhus","lat": 13.4587, "lng": 74.9911, "name": "Hebri"},
{"address": "Corona: 2345 Malaria: 87 Currently: 0", "id": "aarhus","lat": 13.6235, "lng": 74.6917, "name": "Kundapur"},
{"address": "Corona: 3211 Malaria: 45 Currently: 0", "id": "aarhus","lat": 13.3524, "lng": 74.7868, "name": "Manipal"},
{"address": "Corona: 567 Malaria: 11 Currently: 0", "id": "aarhus","lat": 13.5027, "lng": 75.0903, "name": "Agumbe"},
{"address": "Corona: 1323 Malaria: 56 Currently: 0", "id": "aarhus","lat": 16.1848, "lng": 80.7962, "name": "Kollur"},
{"address": "Corona: 989 Malaria: 65 Currently: 0", "id": "aarhus","lat": 13.1413, "lng": 75.2537, "name": "Kuduremukh"},
{"address": "Corona: 876 Malaria: 61 Currently: 0", "id": "aarhus","lat": 13.1851, "lng": 75.0356, "name": "Miyar"},
{"address": "Corona: 1567 Malaria: 65 Currently: 0", "id": "aarhus","lat": 13.4254, "lng": 74.7572, "name": "Brahmavar"},
{"address": "Corona: 765 Malaria: 45 Currently: 0", "id": "aarhus","lat": 25.2138, "lng": 75.8648, "name": "Kota"},
{"address": "Corona: 3454 Malaria: 56 Currently: 0", "id": "aarhus","lat": 13.3409, "lng": 74.7421, "name": "Udupi"},
{"address": "Corona: 3212 Malaria: 64 Currently: 0", "id": "aarhus","lat": 14.5479, "lng": 74.3188, "name": "Gokarna"},
{"address": "Corona: 2134 Malaria: 45 Currently: 0", "id": "aarhus","lat": 15.3350, "lng": 76.4600, "name": "Hampi"},
{"address": "Corona: 1345 Malaria: 55 Currently: 0", "id": "aarhus","lat": 13.2344, "lng": 75.3558, "name": "Kalasa"},
{"address": "Corona: 1212 Malaria: 56 Currently: 0", "id": "aarhus","lat": 13.0693, "lng": 77.7982, "name": "Hoskote"},
{"address": "Corona: 1345 Malaria: 47 Currently: 0", "id": "aarhus","lat": 13.9993, "lng": 74.5408, "name": "Bhatkal"},
{"address": "Corona: 1345 Malaria: 65 Currently: 0", "id": "aarhus","lat": 14.8185, "lng": 74.1416, "name": "Karvar"},
{"address": "Corona: 2367 Malaria: 67 Currently: 0", "id": "aarhus","lat": 14.6196, "lng": 74.8441, "name": "Sirsi"},
{"address": "Corona: 3567 Malaria: 78 Currently: 0", "id": "aarhus","lat": 14.7937, "lng": 74.6869, "name": "Uttara Kannada"},
{"address": "Corona: 2678 Malaria: 65 Currently: 0", "id": "aarhus","lat": 14.6653, "lng": 74.3001, "name": "Ankola"},
{"address": "Corona: 3254 Malaria: 68 Currently: 0", "id": "aarhus","lat": 13.6895, "lng": 75.2450, "name": "Theerthahalli"},
{"address": "Corona: 3567 Malaria: 45 Currently: 0", "id": "aarhus","lat": 14.0940, "lng": 74.4899, "name": "Murdeshwar"},
{"address": "Corona: 245 Malaria: 43 Currently: 0", "id": "aarhus","lat": 13.3499, "lng": 74.8669, "name": "Hiriyadka"}
], 
"regions": [{"coords": {"lat": 2.9660291, "lng": 1.3271339}, "id": "africa-middle-east", "name": "Africa & Middle East", "zoom": 3.0}, {"coords": {"lat": 0.0524811, "lng": 127.6560787}, "id": "asia-pacific", "name": "Asia Pacific", "zoom": 3.0}, {"coords": {"lat": 46.1352815, "lng": 7.4033438}, "id": "europe", "name": "Europe", "zoom": 4.0}, {"coords": {"lat": -17.5554497, "lng": -99.2316195}, "id": "latin-america", "name": "Latin America", "zoom": 3.0}, {"coords": {"lat": 45.7128252, "lng": -97.1547448}, "id": "north-america", "name": "North America", "zoom": 4.0}]}